Area Name,Latitude,Longitude,Risk Score,Primary Reason
Silk Board Junction,12.9176,77.6238,95,Extreme Traffic Deadlock
Bellandur Lake Road,12.9304,77.6784,92,Severe Flooding & Toxic Foam
KR Puram Railway Station,13.0016,77.6746,90,Traffic Convergence & Pedestrian Hazard
Majestic / Kempegowda Bus Station,12.9766,77.5713,88,Overcrowding & High Pickpocketing Risk
Hebbal Flyover,13.0382,77.5919,87,Severe Commuter Congestion
Gali Anjaneya Temple Flyover,12.953,77.5422,86,Flash Floods (Vrishabhavathi Valley)
Tin Factory Junction,12.9941,77.6661,85,Chaotic Traffic Routing
Koramangala 4th Block,12.9324,77.632,84,Monsoon Waterlogging
KR Market,12.9654,77.576,82,Fire Hazards & Extreme Density
Marathahalli Bridge,12.9569,77.7011,81,Potholes & IT Corridor Bottleneck
Nayandahalli Junction,12.9427,77.5255,80,Heavy Vehicle Traffic Accidents
Bommanahalli,12.903,77.6242,78,Poor Drainage Infrastructure
HSR Layout Sector 3,12.9116,77.6389,77,Low-lying Area Waterlogging
Peenya Industrial Area,13.0285,77.5197,76,Industrial Pollution & Bad Roads
Shivajinagar,12.9857,77.6057,75,Narrow Streets & Emergency Access Blockage
Whitefield (Hope Farm),12.9698,77.7499,74,Construction Dust & Gridlocks
Mahadevapura,12.988,77.6895,73,Commuter Traffic & Potholes
Hosur Road (Bommasandra),12.816,77.691,72,High-Speed Highway Accidents
Madiwala,12.9226,77.6174,71,Market Congestion & Intercity Bus Overload
Ejipura,12.9385,77.6308,70,Dense Population & Infra Gaps
Bapuji Nagar,12.9545,77.5378,68,Stormwater Drain Overflows
Sony World Junction,12.936,77.6305,65,Signal Delays
Domlur Interchange,12.9609,77.6387,64,Connecting Hub Gridlock
Electronic City Phase 1 Toll,12.8452,77.6602,62,Toll Plaza Delays
Yelahanka New Town,13.0993,77.5844,60,Isolated Stretches at Night
Tippasandra,12.9738,77.6508,58,Narrow Commercial Lanes
